[
  {
    "id": "acadia",
    "name": "Acadia National Park",
    "state": "Maine",
    "coordinates": { "lat": 44.3386, "lng": -68.2733 },
    "description": "A rugged Atlantic coast park known for granite peaks, carriage roads, and scenic ocean vistas."
  },
  {
    "id": "arches",
    "name": "Arches National Park",
    "state": "Utah",
    "coordinates": { "lat": 38.7331, "lng": -109.5925 },
    "description": "Famous for more than 2,000 natural sandstone arches, dramatic fins, and red-rock landscapes."
  },
  {
    "id": "badlands",
    "name": "Badlands National Park",
    "state": "South Dakota",
    "coordinates": { "lat": 43.8554, "lng": -102.3397 },
    "description": "A striking mix of eroded buttes, pinnacles, and prairie habitat rich with fossils and wildlife."
  },
  {
    "id": "bryce-canyon",
    "name": "Bryce Canyon National Park",
    "state": "Utah",
    "coordinates": { "lat": 37.593, "lng": -112.1871 },
    "description": "Known for vast amphitheaters filled with colorful hoodoos and high-elevation viewpoints."
  },
  {
    "id": "glacier",
    "name": "Glacier National Park",
    "state": "Montana",
    "coordinates": { "lat": 48.7596, "lng": -113.787 },
    "description": "A mountainous wilderness featuring alpine lakes, historic lodges, and the Going-to-the-Sun Road."
  },
  {
    "id": "grand-canyon",
    "name": "Grand Canyon National Park",
    "state": "Arizona",
    "coordinates": { "lat": 36.1069, "lng": -112.1129 },
    "description": "Home to an immense canyon carved by the Colorado River, with layered rock revealing geologic history."
  },
  {
    "id": "grand-teton",
    "name": "Grand Teton National Park",
    "state": "Wyoming",
    "coordinates": { "lat": 43.7904, "lng": -110.6818 },
    "description": "Features jagged peaks, glacier-fed lakes, and abundant wildlife in the Greater Yellowstone ecosystem."
  },
  {
    "id": "rocky-mountain",
    "name": "Rocky Mountain National Park",
    "state": "Colorado",
    "coordinates": { "lat": 40.3428, "lng": -105.6836 },
    "description": "A high-altitude park with tundra, mountain lakes, elk herds, and scenic drives above 12,000 feet."
  },
  {
    "id": "yellowstone",
    "name": "Yellowstone National Park",
    "state": "Wyoming",
    "coordinates": { "lat": 44.428, "lng": -110.5885 },
    "description": "The first U.S. national park, renowned for geysers, hot springs, canyons, and diverse wildlife."
  },
  {
    "id": "yosemite",
    "name": "Yosemite National Park",
    "state": "California",
    "coordinates": { "lat": 37.8651, "lng": -119.5383 },
    "description": "Celebrated for granite cliffs, giant sequoias, waterfalls, and iconic views in Yosemite Valley."
  }
]
